{
"type": "FeatureCollection",
"name": "nas_punkti_5000",
"crs": { "type": "name", "properties": { "name": "urn:ogc:def:crs:OGC:1.3:CRS84" } },
"features": [
{ "type": "Feature", "properties": { "osm_id": "26544289", "code": 1001, "fclass": "city", "population": 2332400, "name": "Алматы" }, "geometry": { "type": "Point", "coordinates": [ 76.9457275, 43.2363924 ] } },
{ "type": "Feature", "properties": { "osm_id": "27522202", "code": 1001, "fclass": "city", "population": 65356, "name": "Талғар" }, "geometry": { "type": "Point", "coordinates": [ 77.2394726, 43.302721 ] } },
{ "type": "Feature", "properties": { "osm_id": "27524816", "code": 1001, "fclass": "city", "population": 310456, "name": "Семей" }, "geometry": { "type": "Point", "coordinates": [ 80.2496637, 50.404377 ] } },
{ "type": "Feature", "properties": { "osm_id": "27548009", "code": 1005, "fclass": "national_capital", "population": 1601490, "name": "Астана" }, "geometry": { "type": "Point", "coordinates": [ 71.4306682, 51.1282205 ] } },
{ "type": "Feature", "properties": { "osm_id": "98022062", "code": 1001, "fclass": "city", "population": 323295, "name": "Атырау" }, "geometry": { "type": "Point", "coordinates": [ 51.9138976, 47.1067183 ] } },
{ "type": "Feature", "properties": { "osm_id": "98054566", "code": 1001, "fclass": "city", "population": 8778, "name": "Форт-Шевченко" }, "geometry": { "type": "Point", "coordinates": [ 50.261929, 44.508556 ] } },
{ "type": "Feature", "properties": { "osm_id": "214887132", "code": 1001, "fclass": "city", "population": 228003, "name": "Түркістан" }, "geometry": { "type": "Point", "coordinates": [ 68.2703698, 43.3019457 ] } },
{ "type": "Feature", "properties": { "osm_id": "240470924", "code": 1001, "fclass": "city", "population": 431160, "name": "Тараз" }, "geometry": { "type": "Point", "coordinates": [ 71.3769302, 42.9015945 ] } },
{ "type": "Feature", "properties": { "osm_id": "240505390", "code": 1001, "fclass": "city", "population": 45531, "name": "Шу" }, "geometry": { "type": "Point", "coordinates": [ 73.76075, 43.608765 ] } },
{ "type": "Feature", "properties": { "osm_id": "240614298", "code": 1002, "fclass": "town", "population": 15436, "name": "Бауыржан Момышұлы ауылы" }, "geometry": { "type": "Point", "coordinates": [ 70.769516, 42.618401 ] } },
{ "type": "Feature", "properties": { "osm_id": "240707056", "code": 1001, "fclass": "city", "population": 28422, "name": "Қаратау" }, "geometry": { "type": "Point", "coordinates": [ 70.46489, 43.176197 ] } },
{ "type": "Feature", "properties": { "osm_id": "240711925", "code": 1001, "fclass": "city", "population": 25693, "name": "Жаңатас" }, "geometry": { "type": "Point", "coordinates": [ 69.7265539, 43.5567547 ] } },
{ "type": "Feature", "properties": { "osm_id": "240865457", "code": 1001, "fclass": "city", "population": 520486, "name": "Қарағанды" }, "geometry": { "type": "Point", "coordinates": [ 73.1026622, 49.8161282 ] } },
{ "type": "Feature", "properties": { "osm_id": "240872918", "code": 1001, "fclass": "city", "population": 334830, "name": "Павлодар" }, "geometry": { "type": "Point", "coordinates": [ 76.9455035, 52.2857573 ] } },
{ "type": "Feature", "properties": { "osm_id": "240993564", "code": 1001, "fclass": "city", "population": 354770, "name": "Өскемен" }, "geometry": { "type": "Point", "coordinates": [ 82.6274791, 49.9484438 ] } },
{ "type": "Feature", "properties": { "osm_id": "241035125", "code": 1001, "fclass": "city", "population": 570452, "name": "Ақтөбе" }, "geometry": { "type": "Point", "coordinates": [ 57.2298129, 50.2836938 ] } },
{ "type": "Feature", "properties": { "osm_id": "241455373", "code": 1001, "fclass": "city", "population": 171609, "name": "Теміртау" }, "geometry": { "type": "Point", "coordinates": [ 72.9535681, 50.0587825 ] } },
{ "type": "Feature", "properties": { "osm_id": "241492821", "code": 1001, "fclass": "city", "population": 281887, "name": "Қызылорда" }, "geometry": { "type": "Point", "coordinates": [ 65.5036151, 44.8426778 ] } },
{ "type": "Feature", "properties": { "osm_id": "241542056", "code": 1001, "fclass": "city", "population": 176849, "name": "Көкшетау" }, "geometry": { "type": "Point", "coordinates": [ 69.3814676, 53.2852054 ] } },
{ "type": "Feature", "properties": { "osm_id": "241549456", "code": 1001, "fclass": "city", "population": 111908, "name": "Рудный" }, "geometry": { "type": "Point", "coordinates": [ 63.133488, 52.964458 ] } },
{ "type": "Feature", "properties": { "osm_id": "241679356", "code": 1001, "fclass": "city", "population": 169462, "name": "Талдықорған" }, "geometry": { "type": "Point", "coordinates": [ 78.3820494, 45.0177188 ] } },
{ "type": "Feature", "properties": { "osm_id": "241772277", "code": 1001, "fclass": "city", "population": 74659, "name": "Кентау" }, "geometry": { "type": "Point", "coordinates": [ 68.4996044, 43.5165919 ] } },
{ "type": "Feature", "properties": { "osm_id": "241781833", "code": 1001, "fclass": "city", "population": 52123, "name": "Арыс" }, "geometry": { "type": "Point", "coordinates": [ 68.8134889, 42.4324695 ] } },
{ "type": "Feature", "properties": { "osm_id": "242415806", "code": 1002, "fclass": "town", "population": 15024, "name": "Сарыөзек" }, "geometry": { "type": "Point", "coordinates": [ 77.974594, 44.362385 ] } },
{ "type": "Feature", "properties": { "osm_id": "242465214", "code": 1001, "fclass": "city", "population": 56436, "name": "Қонаев" }, "geometry": { "type": "Point", "coordinates": [ 77.0614587, 43.855174 ] } },
{ "type": "Feature", "properties": { "osm_id": "242792776", "code": 1002, "fclass": "town", "population": 19661, "name": "Қарабұлақ" }, "geometry": { "type": "Point", "coordinates": [ 78.4911895, 44.908175 ] } },
{ "type": "Feature", "properties": { "osm_id": "242793665", "code": 1001, "fclass": "city", "population": 30179, "name": "Текелі" }, "geometry": { "type": "Point", "coordinates": [ 78.7629423, 44.8615202 ] } },
{ "type": "Feature", "properties": { "osm_id": "243119367", "code": 1003, "fclass": "village", "population": 5195, "name": "Ақтоғай" }, "geometry": { "type": "Point", "coordinates": [ 79.67543, 46.952198 ] } },
{ "type": "Feature", "properties": { "osm_id": "243235602", "code": 1001, "fclass": "city", "population": 21188, "name": "Үшарал" }, "geometry": { "type": "Point", "coordinates": [ 80.952568, 46.176125 ] } },
{ "type": "Feature", "properties": { "osm_id": "243324293", "code": 1001, "fclass": "city", "population": 17939, "name": "Сарқан" }, "geometry": { "type": "Point", "coordinates": [ 79.9155159, 45.4109229 ] } },
{ "type": "Feature", "properties": { "osm_id": "243325633", "code": 1002, "fclass": "town", "population": 9913, "name": "Жансүгіров" }, "geometry": { "type": "Point", "coordinates": [ 79.508598, 45.398308 ] } },
{ "type": "Feature", "properties": { "osm_id": "243464146", "code": 1002, "fclass": "town", "population": 11929, "name": "Мақаншы" }, "geometry": { "type": "Point", "coordinates": [ 82.020632, 46.7903859 ] } },
{ "type": "Feature", "properties": { "osm_id": "243465319", "code": 1002, "fclass": "town", "population": 17096, "name": "Үржар" }, "geometry": { "type": "Point", "coordinates": [ 81.6214218, 47.0960085 ] } },
{ "type": "Feature", "properties": { "osm_id": "243487112", "code": 1002, "fclass": "town", "population": 17224, "name": "Балпық би" }, "geometry": { "type": "Point", "coordinates": [ 78.23307, 44.901318 ] } },
{ "type": "Feature", "properties": { "osm_id": "243657575", "code": 1001, "fclass": "city", "population": 53144, "name": "Жаркент" }, "geometry": { "type": "Point", "coordinates": [ 80.002739, 44.165665 ] } },
{ "type": "Feature", "properties": { "osm_id": "243659737", "code": 1003, "fclass": "village", "population": 103060, "name": "Көктал" }, "geometry": { "type": "Point", "coordinates": [ 79.812553, 44.137226 ] } },
{ "type": "Feature", "properties": { "osm_id": "243692801", "code": 1003, "fclass": "village", "population": 5572, "name": "Шарын" }, "geometry": { "type": "Point", "coordinates": [ 79.390045, 43.772888 ] } },
{ "type": "Feature", "properties": { "osm_id": "243693248", "code": 1002, "fclass": "town", "population": 22317, "name": "Шонжы" }, "geometry": { "type": "Point", "coordinates": [ 79.465935, 43.537277 ] } },
{ "type": "Feature", "properties": { "osm_id": "243723775", "code": 1002, "fclass": "town", "population": 8456, "name": "Кеген" }, "geometry": { "type": "Point", "coordinates": [ 79.22316, 43.021698 ] } },
{ "type": "Feature", "properties": { "osm_id": "243725702", "code": 1002, "fclass": "town", "population": 35000, "name": null }, "geometry": { "type": "Point", "coordinates": [ 78.2491677, 43.5994233 ] } },
{ "type": "Feature", "properties": { "osm_id": "243741613", "code": 1002, "fclass": "town", "population": 5944, "name": "Нарынқол" }, "geometry": { "type": "Point", "coordinates": [ 80.177589, 42.729275 ] } },
{ "type": "Feature", "properties": { "osm_id": "243743625", "code": 1001, "fclass": "city", "population": 41517, "name": "Есік" }, "geometry": { "type": "Point", "coordinates": [ 77.465919, 43.359486 ] } },
{ "type": "Feature", "properties": { "osm_id": "243997970", "code": 1002, "fclass": "town", "population": 15163, "name": "Жібек жолы" }, "geometry": { "type": "Point", "coordinates": [ 76.6244345, 43.3704541 ] } },
{ "type": "Feature", "properties": { "osm_id": "243998902", "code": 1002, "fclass": "town", "population": 48602, "name": "Ұзынағаш" }, "geometry": { "type": "Point", "coordinates": [ 76.3159728, 43.2118387 ] } },
{ "type": "Feature", "properties": { "osm_id": "244017974", "code": 1001, "fclass": "city", "population": 73450, "name": "Балқаш" }, "geometry": { "type": "Point", "coordinates": [ 74.9773285, 46.8433208 ] } },
{ "type": "Feature", "properties": { "osm_id": "244109105", "code": 1002, "fclass": "town", "population": 6049, "name": "Қабанбай" }, "geometry": { "type": "Point", "coordinates": [ 80.630844, 45.834267 ] } },
{ "type": "Feature", "properties": { "osm_id": "244118007", "code": 1003, "fclass": "village", "population": 10753, "name": "Қалбатау" }, "geometry": { "type": "Point", "coordinates": [ 81.5706733, 49.3302177 ] } },
{ "type": "Feature", "properties": { "osm_id": "244128763", "code": 1003, "fclass": "village", "population": 5103, "name": "Көкпекті" }, "geometry": { "type": "Point", "coordinates": [ 82.3826094, 48.7558184 ] } },
{ "type": "Feature", "properties": { "osm_id": "244147213", "code": 1001, "fclass": "city", "population": 45072, "name": "Риддер" }, "geometry": { "type": "Point", "coordinates": [ 83.506157, 50.338932 ] } },
{ "type": "Feature", "properties": { "osm_id": "244198209", "code": 1001, "fclass": "city", "population": 35746, "name": "Алтай" }, "geometry": { "type": "Point", "coordinates": [ 84.275146, 49.724243 ] } },
{ "type": "Feature", "properties": { "osm_id": "244458811", "code": 1002, "fclass": "town", "population": 39288, "name": "Қордай" }, "geometry": { "type": "Point", "coordinates": [ 74.714485, 43.042965 ] } },
{ "type": "Feature", "properties": { "osm_id": "244526819", "code": 1002, "fclass": "town", "population": 17133, "name": "Меркі" }, "geometry": { "type": "Point", "coordinates": [ 73.1861106, 42.8651436 ] } },
{ "type": "Feature", "properties": { "osm_id": "244529371", "code": 1001, "fclass": "city", "population": 34145, "name": "Леңгір" }, "geometry": { "type": "Point", "coordinates": [ 69.88755, 42.181854 ] } },
{ "type": "Feature", "properties": { "osm_id": "244532522", "code": 1001, "fclass": "city", "population": 62215, "name": "Сарыағаш" }, "geometry": { "type": "Point", "coordinates": [ 69.1830754, 41.4700321 ] } },
{ "type": "Feature", "properties": { "osm_id": "247318618", "code": 1001, "fclass": "city", "population": 44105, "name": "Жетісай" }, "geometry": { "type": "Point", "coordinates": [ 68.324677, 40.777134 ] } },
{ "type": "Feature", "properties": { "osm_id": "247318653", "code": 1002, "fclass": "town", "population": 20900, "name": "Атакент" }, "geometry": { "type": "Point", "coordinates": [ 68.5090214, 40.844435 ] } },
{ "type": "Feature", "properties": { "osm_id": "247318736", "code": 1002, "fclass": "town", "population": 17487, "name": "Мырзакент" }, "geometry": { "type": "Point", "coordinates": [ 68.5499938, 40.6654951 ] } },
{ "type": "Feature", "properties": { "osm_id": "247319161", "code": 1001, "fclass": "city", "population": 32107, "name": "Шардара" }, "geometry": { "type": "Point", "coordinates": [ 67.975266, 41.255856 ] } },
{ "type": "Feature", "properties": { "osm_id": "248057498", "code": 1001, "fclass": "city", "population": 31090, "name": "Лисаковск" }, "geometry": { "type": "Point", "coordinates": [ 62.489201, 52.545864 ] } },
{ "type": "Feature", "properties": { "osm_id": "253063867", "code": 1001, "fclass": "city", "population": 75604, "name": "Жаңаөзен" }, "geometry": { "type": "Point", "coordinates": [ 52.8556219, 43.3381034 ] } },
{ "type": "Feature", "properties": { "osm_id": "253075983", "code": 1002, "fclass": "town", "population": 11565, "name": "Құрық" }, "geometry": { "type": "Point", "coordinates": [ 51.6796799, 43.176664 ] } },
{ "type": "Feature", "properties": { "osm_id": "253716507", "code": 1001, "fclass": "city", "population": 66580, "name": "Құлсары" }, "geometry": { "type": "Point", "coordinates": [ 54.0129176, 46.9621483 ] } },
{ "type": "Feature", "properties": { "osm_id": "253725107", "code": 1002, "fclass": "town", "population": 13939, "name": "Мақат" }, "geometry": { "type": "Point", "coordinates": [ 53.350528, 47.6471515 ] } },
{ "type": "Feature", "properties": { "osm_id": "253725345", "code": 1002, "fclass": "town", "population": 16117, "name": "Индербор" }, "geometry": { "type": "Point", "coordinates": [ 51.7478775, 48.5610249 ] } },
{ "type": "Feature", "properties": { "osm_id": "253729284", "code": 1002, "fclass": "town", "population": 11072, "name": "Махамбет" }, "geometry": { "type": "Point", "coordinates": [ 51.5865434, 47.675577 ] } },
{ "type": "Feature", "properties": { "osm_id": "253730815", "code": 1002, "fclass": "town", "population": 13806, "name": "Доссор" }, "geometry": { "type": "Point", "coordinates": [ 52.979435, 47.522774 ] } },
{ "type": "Feature", "properties": { "osm_id": "253781928", "code": 1010, "fclass": "suburb", "population": 5348, "name": "Заречное" }, "geometry": { "type": "Point", "coordinates": [ 77.041367, 43.714199 ] } },
{ "type": "Feature", "properties": { "osm_id": "253944927", "code": 1003, "fclass": "village", "population": 12100, "name": "Түрген" }, "geometry": { "type": "Point", "coordinates": [ 77.593498, 43.396721 ] } },
{ "type": "Feature", "properties": { "osm_id": "253983700", "code": 1002, "fclass": "town", "population": 57990, "name": "Бейнеу" }, "geometry": { "type": "Point", "coordinates": [ 55.186226, 45.321377 ] } },
{ "type": "Feature", "properties": { "osm_id": "254135336", "code": 1003, "fclass": "village", "population": 7249, "name": "Сағыз" }, "geometry": { "type": "Point", "coordinates": [ 54.878654, 48.234829 ] } },
{ "type": "Feature", "properties": { "osm_id": "254136309", "code": 1003, "fclass": "village", "population": 7859, "name": "Миялы" }, "geometry": { "type": "Point", "coordinates": [ 53.7905551, 48.8860423 ] } },
{ "type": "Feature", "properties": { "osm_id": "254139962", "code": 1002, "fclass": "town", "population": 11349, "name": "Қарауылкелді" }, "geometry": { "type": "Point", "coordinates": [ 55.8772348, 48.6935886 ] } },
{ "type": "Feature", "properties": { "osm_id": "254143253", "code": 1002, "fclass": "town", "population": 14348, "name": "Шұбарқұдық" }, "geometry": { "type": "Point", "coordinates": [ 56.4820258, 49.1431517 ] } },
{ "type": "Feature", "properties": { "osm_id": "254144883", "code": 1001, "fclass": "city", "population": 35699, "name": "Қандыағаш" }, "geometry": { "type": "Point", "coordinates": [ 57.4224647, 49.4718361 ] } },
{ "type": "Feature", "properties": { "osm_id": "254313000", "code": 1002, "fclass": "town", "population": 13000, "name": "Ақадыр" }, "geometry": { "type": "Point", "coordinates": [ 72.854958, 48.259068 ] } },
{ "type": "Feature", "properties": { "osm_id": "254313822", "code": 1003, "fclass": "village", "population": 5500, "name": "Ақшатау" }, "geometry": { "type": "Point", "coordinates": [ 74.043442, 47.985634 ] } },
{ "type": "Feature", "properties": { "osm_id": "271077515", "code": 1002, "fclass": "town", "population": 46237, "name": "Әйтеке би кенті" }, "geometry": { "type": "Point", "coordinates": [ 62.153023, 45.844875 ] } },
{ "type": "Feature", "properties": { "osm_id": "271080647", "code": 1001, "fclass": "city", "population": 37183, "name": "Арал" }, "geometry": { "type": "Point", "coordinates": [ 61.661221, 46.797985 ] } },
{ "type": "Feature", "properties": { "osm_id": "271085442", "code": 1001, "fclass": "city", "population": 7462, "name": "Қазалы" }, "geometry": { "type": "Point", "coordinates": [ 62.101181, 45.76255 ] } },
{ "type": "Feature", "properties": { "osm_id": "271092323", "code": 1001, "fclass": "city", "population": 33817, "name": "Байқоңыр" }, "geometry": { "type": "Point", "coordinates": [ 63.3209201, 45.6321977 ] } },
{ "type": "Feature", "properties": { "osm_id": "271100134", "code": 1002, "fclass": "town", "population": 20269, "name": "Жосалы" }, "geometry": { "type": "Point", "coordinates": [ 64.0849, 45.484024 ] } },
{ "type": "Feature", "properties": { "osm_id": "271125900", "code": 1001, "fclass": "city", "population": 12998, "name": "Ембі" }, "geometry": { "type": "Point", "coordinates": [ 58.147369, 48.829453 ] } },
{ "type": "Feature", "properties": { "osm_id": "271147978", "code": 1001, "fclass": "city", "population": 27971, "name": "Шалқар" }, "geometry": { "type": "Point", "coordinates": [ 59.6159216, 47.8273018 ] } },
{ "type": "Feature", "properties": { "osm_id": "271172811", "code": 1002, "fclass": "town", "population": 6842, "name": "Ырғыз" }, "geometry": { "type": "Point", "coordinates": [ 61.263981, 48.617874 ] } },
{ "type": "Feature", "properties": { "osm_id": "271183751", "code": 1001, "fclass": "city", "population": 30304, "name": "Хромтау" }, "geometry": { "type": "Point", "coordinates": [ 58.435345, 50.256878 ] } },
{ "type": "Feature", "properties": { "osm_id": "271203690", "code": 1001, "fclass": "city", "population": 89283, "name": "Жезқазған" }, "geometry": { "type": "Point", "coordinates": [ 67.7145674, 47.80434 ] } },
{ "type": "Feature", "properties": { "osm_id": "271292059", "code": 1001, "fclass": "city", "population": 8180, "name": "Қаражал" }, "geometry": { "type": "Point", "coordinates": [ 70.7936243, 48.0045008 ] } },
{ "type": "Feature", "properties": { "osm_id": "271293913", "code": 1002, "fclass": "town", "population": 17528, "name": "Жаңаарқа" }, "geometry": { "type": "Point", "coordinates": [ 71.6355854, 48.6861721 ] } },
{ "type": "Feature", "properties": { "osm_id": "271309842", "code": 1002, "fclass": "town", "population": 9134, "name": "Қарқаралы" }, "geometry": { "type": "Point", "coordinates": [ 75.4704514, 49.4124087 ] } },
{ "type": "Feature", "properties": { "osm_id": "271311323", "code": 1001, "fclass": "city", "population": 11153, "name": "Приозёрск" }, "geometry": { "type": "Point", "coordinates": [ 73.6925172, 46.0308244 ] } },
{ "type": "Feature", "properties": { "osm_id": "271311686", "code": 1001, "fclass": "city", "population": 34507, "name": "Саран" }, "geometry": { "type": "Point", "coordinates": [ 72.8285112, 49.8017081 ] } },
{ "type": "Feature", "properties": { "osm_id": "271312178", "code": 1001, "fclass": "city", "population": 68740, "name": "Сәтбаев" }, "geometry": { "type": "Point", "coordinates": [ 67.530579, 47.904949 ] } },
{ "type": "Feature", "properties": { "osm_id": "271395447", "code": 1003, "fclass": "village", "population": 8930, "name": "Осакаровка" }, "geometry": { "type": "Point", "coordinates": [ 72.5813736, 50.5606688 ] } },
{ "type": "Feature", "properties": { "osm_id": "271416049", "code": 1003, "fclass": "village", "population": 6533, "name": "Нұра" }, "geometry": { "type": "Point", "coordinates": [ 71.5527472, 50.2606707 ] } },
{ "type": "Feature", "properties": { "osm_id": "293607451", "code": 1001, "fclass": "city", "population": 51728, "name": "Ақсу" }, "geometry": { "type": "Point", "coordinates": [ 76.9341133, 52.0354244 ] } },
{ "type": "Feature", "properties": { "osm_id": "297596160", "code": 1003, "fclass": "village", "population": 18572, "name": "Құлан" }, "geometry": { "type": "Point", "coordinates": [ 72.7082491, 42.9107803 ] } },
{ "type": "Feature", "properties": { "osm_id": "298109357", "code": 1001, "fclass": "city", "population": 12652, "name": "Ерейментау" }, "geometry": { "type": "Point", "coordinates": [ 73.103348, 51.619881 ] } },
{ "type": "Feature", "properties": { "osm_id": "299923721", "code": 1001, "fclass": "city", "population": 28722, "name": "Абай" }, "geometry": { "type": "Point", "coordinates": [ 72.8722067, 49.6299017 ] } },
{ "type": "Feature", "properties": { "osm_id": "299978968", "code": 1002, "fclass": "town", "population": 5690, "name": "Ақтау" }, "geometry": { "type": "Point", "coordinates": [ 73.0612975, 50.2191313 ] } },
{ "type": "Feature", "properties": { "osm_id": "299982128", "code": 1001, "fclass": "city", "population": 28334, "name": "Арқалық" }, "geometry": { "type": "Point", "coordinates": [ 66.914993, 50.253281 ] } },
{ "type": "Feature", "properties": { "osm_id": "301715316", "code": 1002, "fclass": "town", "population": 7494, "name": "Шахан" }, "geometry": { "type": "Point", "coordinates": [ 72.6548148, 49.8186889 ] } },
{ "type": "Feature", "properties": { "osm_id": "301716913", "code": 1001, "fclass": "city", "population": 38961, "name": "Шахтинск" }, "geometry": { "type": "Point", "coordinates": [ 72.5948421, 49.7056642 ] } },
{ "type": "Feature", "properties": { "osm_id": "301717251", "code": 1003, "fclass": "village", "population": 9133, "name": "Жәйрем" }, "geometry": { "type": "Point", "coordinates": [ 70.161003, 48.335682 ] } },
{ "type": "Feature", "properties": { "osm_id": "301761659", "code": 1002, "fclass": "town", "population": 10000, "name": "Топар" }, "geometry": { "type": "Point", "coordinates": [ 72.830423, 49.5172874 ] } },
{ "type": "Feature", "properties": { "osm_id": "303821397", "code": 1002, "fclass": "town", "population": 11009, "name": "Қарабалық" }, "geometry": { "type": "Point", "coordinates": [ 62.062511, 53.748184 ] } },
{ "type": "Feature", "properties": { "osm_id": "303893241", "code": 1003, "fclass": "village", "population": 10961, "name": "Әулиекөл" }, "geometry": { "type": "Point", "coordinates": [ 64.133171, 52.361904 ] } },
{ "type": "Feature", "properties": { "osm_id": "303908697", "code": 1001, "fclass": "city", "population": 11484, "name": "Есіл" }, "geometry": { "type": "Point", "coordinates": [ 66.4092259, 51.960204 ] } },
{ "type": "Feature", "properties": { "osm_id": "303913171", "code": 1001, "fclass": "city", "population": 31434, "name": "Атбасар" }, "geometry": { "type": "Point", "coordinates": [ 68.3573356, 51.8097369 ] } },
{ "type": "Feature", "properties": { "osm_id": "304263027", "code": 1010, "fclass": "suburb", "population": 40000, "name": "Сайрам" }, "geometry": { "type": "Point", "coordinates": [ 69.7599716, 42.3004979 ] } },
{ "type": "Feature", "properties": { "osm_id": "311797652", "code": 1001, "fclass": "city", "population": 18365, "name": "Шемонаиха" }, "geometry": { "type": "Point", "coordinates": [ 81.9155467, 50.6287241 ] } },
{ "type": "Feature", "properties": { "osm_id": "335384896", "code": 1003, "fclass": "village", "population": 10550, "name": "Байкент" }, "geometry": { "type": "Point", "coordinates": [ 76.8081867, 43.4699979 ] } },
{ "type": "Feature", "properties": { "osm_id": "339945971", "code": 1001, "fclass": "city", "population": 49116, "name": "Степногорск" }, "geometry": { "type": "Point", "coordinates": [ 71.880493, 52.346371 ] } },
{ "type": "Feature", "properties": { "osm_id": "346802464", "code": 1002, "fclass": "town", "population": 9700, "name": "Илек" }, "geometry": { "type": "Point", "coordinates": [ 53.383327, 51.527264 ] } },
{ "type": "Feature", "properties": { "osm_id": "377600470", "code": 1001, "fclass": "city", "population": 10348, "name": "Курчатов" }, "geometry": { "type": "Point", "coordinates": [ 78.5486736, 50.7565343 ] } },
{ "type": "Feature", "properties": { "osm_id": "410076644", "code": 1002, "fclass": "town", "population": 6695, "name": "Амангелді" }, "geometry": { "type": "Point", "coordinates": [ 65.1942135, 50.1806755 ] } },
{ "type": "Feature", "properties": { "osm_id": "410079696", "code": 1001, "fclass": "city", "population": 7097, "name": "Державинск" }, "geometry": { "type": "Point", "coordinates": [ 66.3138516, 51.0990849 ] } },
{ "type": "Feature", "properties": { "osm_id": "411845123", "code": 1003, "fclass": "village", "population": 7474, "name": "Новоишимское" }, "geometry": { "type": "Point", "coordinates": [ 66.7929531, 53.2025913 ] } },
{ "type": "Feature", "properties": { "osm_id": "411850771", "code": 1001, "fclass": "city", "population": 8112, "name": "Сергеевка" }, "geometry": { "type": "Point", "coordinates": [ 67.415863, 53.880951 ] } },
{ "type": "Feature", "properties": { "osm_id": "411933850", "code": 1003, "fclass": "village", "population": 8146, "name": "Атамекен" }, "geometry": { "type": "Point", "coordinates": [ 80.206566, 44.212772 ] } },
{ "type": "Feature", "properties": { "osm_id": "412236278", "code": 1003, "fclass": "village", "population": 7162, "name": "Зеренді" }, "geometry": { "type": "Point", "coordinates": [ 69.150291, 52.907032 ] } },
{ "type": "Feature", "properties": { "osm_id": "432195513", "code": 1002, "fclass": "town", "population": 5670, "name": null }, "geometry": { "type": "Point", "coordinates": [ 77.267395, 43.403309 ] } },
{ "type": "Feature", "properties": { "osm_id": "435393175", "code": 1001, "fclass": "city", "population": 36034, "name": "Ақсай" }, "geometry": { "type": "Point", "coordinates": [ 53.011478, 51.173893 ] } },
{ "type": "Feature", "properties": { "osm_id": "448814768", "code": 1001, "fclass": "city", "population": 268182, "name": "Қостанай" }, "geometry": { "type": "Point", "coordinates": [ 63.632607, 53.2146604 ] } },
{ "type": "Feature", "properties": { "osm_id": "451501752", "code": 1002, "fclass": "town", "population": 5073, "name": "Үлкен Нарын" }, "geometry": { "type": "Point", "coordinates": [ 84.508766, 49.213886 ] } },
{ "type": "Feature", "properties": { "osm_id": "451519656", "code": 1003, "fclass": "village", "population": 5438, "name": "Железинка" }, "geometry": { "type": "Point", "coordinates": [ 75.3129714, 53.5379935 ] } },
{ "type": "Feature", "properties": { "osm_id": "451700150", "code": 1003, "fclass": "village", "population": 9802, "name": "Бәйдібек би" }, "geometry": { "type": "Point", "coordinates": [ 77.692787, 43.512241 ] } },
{ "type": "Feature", "properties": { "osm_id": "451701087", "code": 1003, "fclass": "village", "population": 16549, "name": null }, "geometry": { "type": "Point", "coordinates": [ 77.0784162, 43.4772925 ] } },
{ "type": "Feature", "properties": { "osm_id": "451702142", "code": 1003, "fclass": "village", "population": 20114, "name": "Қарғалы" }, "geometry": { "type": "Point", "coordinates": [ 76.414658, 43.164577 ] } },
{ "type": "Feature", "properties": { "osm_id": "451702144", "code": 1003, "fclass": "village", "population": 13616, "name": "Шамалған" }, "geometry": { "type": "Point", "coordinates": [ 76.5344882, 43.1897022 ] } },
{ "type": "Feature", "properties": { "osm_id": "451702145", "code": 1003, "fclass": "village", "population": 5425, "name": "Жандосов" }, "geometry": { "type": "Point", "coordinates": [ 76.562103, 43.167881 ] } },
{ "type": "Feature", "properties": { "osm_id": "453920694", "code": 1001, "fclass": "city", "population": 18098, "name": "Макинск" }, "geometry": { "type": "Point", "coordinates": [ 70.418213, 52.63287 ] } },
{ "type": "Feature", "properties": { "osm_id": "457864354", "code": 1001, "fclass": "city", "population": 20418, "name": "Алатау" }, "geometry": { "type": "Point", "coordinates": [ 77.1094811, 43.6726327 ] } },
{ "type": "Feature", "properties": { "osm_id": "462125091", "code": 1003, "fclass": "village", "population": 5912, "name": "Бородулиха" }, "geometry": { "type": "Point", "coordinates": [ 80.9340577, 50.7207116 ] } },
{ "type": "Feature", "properties": { "osm_id": "469687233", "code": 1002, "fclass": "town", "population": 33639, "name": "Жаңақорған" }, "geometry": { "type": "Point", "coordinates": [ 67.249458, 43.909836 ] } },
{ "type": "Feature", "properties": { "osm_id": "471753777", "code": 1003, "fclass": "village", "population": 6070, "name": "Астраханка" }, "geometry": { "type": "Point", "coordinates": [ 69.7916595, 51.5291831 ] } },
{ "type": "Feature", "properties": { "osm_id": "471942685", "code": 1001, "fclass": "city", "population": 22798, "name": "Алға" }, "geometry": { "type": "Point", "coordinates": [ 57.330296, 49.896259 ] } },
{ "type": "Feature", "properties": { "osm_id": "471953135", "code": 1002, "fclass": "town", "population": 7663, "name": "Шыңғырлау" }, "geometry": { "type": "Point", "coordinates": [ 54.085167, 51.100506 ] } },
{ "type": "Feature", "properties": { "osm_id": "472267256", "code": 1010, "fclass": "suburb", "population": 13050, "name": "Құрманғазы" }, "geometry": { "type": "Point", "coordinates": [ 49.269997, 46.604229 ] } },
{ "type": "Feature", "properties": { "osm_id": "472268433", "code": 1002, "fclass": "town", "population": 8879, "name": "Аққыстау" }, "geometry": { "type": "Point", "coordinates": [ 51.009457, 47.224312 ] } },
{ "type": "Feature", "properties": { "osm_id": "473080162", "code": 1002, "fclass": "town", "population": 9767, "name": "Жаңақала" }, "geometry": { "type": "Point", "coordinates": [ 50.3002269, 49.2131283 ] } },
{ "type": "Feature", "properties": { "osm_id": "473098790", "code": 1002, "fclass": "town", "population": 8135, "name": "Тасқала" }, "geometry": { "type": "Point", "coordinates": [ 50.291088, 51.106861 ] } },
{ "type": "Feature", "properties": { "osm_id": "473115328", "code": 1003, "fclass": "village", "population": 5148, "name": "Теректі" }, "geometry": { "type": "Point", "coordinates": [ 51.962719, 51.222443 ] } },
{ "type": "Feature", "properties": { "osm_id": "473372461", "code": 1002, "fclass": "town", "population": 7530, "name": "Жәнібек" }, "geometry": { "type": "Point", "coordinates": [ 46.8517166, 49.4230074 ] } },
{ "type": "Feature", "properties": { "osm_id": "473374582", "code": 1002, "fclass": "town", "population": 5653, "name": "Казталовка" }, "geometry": { "type": "Point", "coordinates": [ 48.689529, 49.769405 ] } },
{ "type": "Feature", "properties": { "osm_id": "473381338", "code": 1003, "fclass": "village", "population": 9701, "name": "Чапаев" }, "geometry": { "type": "Point", "coordinates": [ 51.1716191, 50.1878581 ] } },
{ "type": "Feature", "properties": { "osm_id": "473398051", "code": 1002, "fclass": "town", "population": 5970, "name": "Жымпиты" }, "geometry": { "type": "Point", "coordinates": [ 52.6010876, 50.260317 ] } },
{ "type": "Feature", "properties": { "osm_id": "474352176", "code": 1003, "fclass": "village", "population": 5717, "name": "Қарауыл" }, "geometry": { "type": "Point", "coordinates": [ 79.254616, 48.949196 ] } },
{ "type": "Feature", "properties": { "osm_id": "476263135", "code": 1002, "fclass": "town", "population": 17078, "name": "Шетпе" }, "geometry": { "type": "Point", "coordinates": [ 52.1556413, 44.1413139 ] } },
{ "type": "Feature", "properties": { "osm_id": "481045720", "code": 1002, "fclass": "town", "population": 7965, "name": "Ертіс" }, "geometry": { "type": "Point", "coordinates": [ 75.4584153, 53.3325963 ] } },
{ "type": "Feature", "properties": { "osm_id": "520311978", "code": 1003, "fclass": "village", "population": 5591, "name": "Жаңа Бұқтырма" }, "geometry": { "type": "Point", "coordinates": [ 83.5186178, 49.629428 ] } },
{ "type": "Feature", "properties": { "osm_id": "521722378", "code": 1002, "fclass": "town", "population": 6029, "name": "Қобда" }, "geometry": { "type": "Point", "coordinates": [ 55.6679179, 50.1521793 ] } },
{ "type": "Feature", "properties": { "osm_id": "521734849", "code": 1001, "fclass": "city", "population": 6989, "name": "Серебрянск" }, "geometry": { "type": "Point", "coordinates": [ 83.297089, 49.684608 ] } },
{ "type": "Feature", "properties": { "osm_id": "525190320", "code": 1002, "fclass": "town", "population": 5142, "name": "Денисовка" }, "geometry": { "type": "Point", "coordinates": [ 61.743259, 52.44194 ] } },
{ "type": "Feature", "properties": { "osm_id": "525492535", "code": 1001, "fclass": "city", "population": 13037, "name": "Тайынша" }, "geometry": { "type": "Point", "coordinates": [ 69.761436, 53.847736 ] } },
{ "type": "Feature", "properties": { "osm_id": "533338426", "code": 1002, "fclass": "town", "population": 8488, "name": "Сарыкөл" }, "geometry": { "type": "Point", "coordinates": [ 65.546844, 53.317356 ] } },
{ "type": "Feature", "properties": { "osm_id": "534084948", "code": 1001, "fclass": "city", "population": 19243, "name": "Үштөбе" }, "geometry": { "type": "Point", "coordinates": [ 77.9838119, 45.2513771 ] } },
{ "type": "Feature", "properties": { "osm_id": "534085666", "code": 1002, "fclass": "town", "population": 9381, "name": "Атамекен" }, "geometry": { "type": "Point", "coordinates": [ 76.7871707, 52.260372 ] } },
{ "type": "Feature", "properties": { "osm_id": "534086367", "code": 1003, "fclass": "village", "population": 8125, "name": "Шарбақты" }, "geometry": { "type": "Point", "coordinates": [ 78.159375, 52.4894141 ] } },
{ "type": "Feature", "properties": { "osm_id": "534087995", "code": 1002, "fclass": "town", "population": 7219, "name": "Ақсуат" }, "geometry": { "type": "Point", "coordinates": [ 82.8061386, 47.7620046 ] } },
{ "type": "Feature", "properties": { "osm_id": "534089819", "code": 1003, "fclass": "village", "population": 8347, "name": "Күршім" }, "geometry": { "type": "Point", "coordinates": [ 83.6524237, 48.5656876 ] } },
{ "type": "Feature", "properties": { "osm_id": "534089844", "code": 1003, "fclass": "village", "population": 5736, "name": "Самарское" }, "geometry": { "type": "Point", "coordinates": [ 83.3657624, 49.0204442 ] } },
{ "type": "Feature", "properties": { "osm_id": "534090890", "code": 1002, "fclass": "town", "population": 6736, "name": "Қасым Қайсенов кенті" }, "geometry": { "type": "Point", "coordinates": [ 82.4875024, 49.8755707 ] } },
{ "type": "Feature", "properties": { "osm_id": "535064260", "code": 1002, "fclass": "town", "population": 37258, "name": "Шиелі" }, "geometry": { "type": "Point", "coordinates": [ 66.740959, 44.176025 ] } },
{ "type": "Feature", "properties": { "osm_id": "537561303", "code": 1001, "fclass": "city", "population": 128551, "name": "Екібастұз" }, "geometry": { "type": "Point", "coordinates": [ 75.3288511, 51.7275817 ] } },
{ "type": "Feature", "properties": { "osm_id": "546773876", "code": 1002, "fclass": "town", "population": 6387, "name": "Ботақара" }, "geometry": { "type": "Point", "coordinates": [ 73.716709, 50.0596912 ] } },
{ "type": "Feature", "properties": { "osm_id": "547818309", "code": 1003, "fclass": "village", "population": 5979, "name": "Баянауыл" }, "geometry": { "type": "Point", "coordinates": [ 75.702764, 50.7928518 ] } },
{ "type": "Feature", "properties": { "osm_id": "704397626", "code": 1001, "fclass": "city", "population": 34988, "name": "Жітіқара" }, "geometry": { "type": "Point", "coordinates": [ 61.1893675, 52.1856061 ] } },
{ "type": "Feature", "properties": { "osm_id": "729610410", "code": 1001, "fclass": "city", "population": 273830, "name": "Ақтау" }, "geometry": { "type": "Point", "coordinates": [ 51.168222, 43.6353364 ] } },
{ "type": "Feature", "properties": { "osm_id": "732623217", "code": 1002, "fclass": "town", "population": 6407, "name": "Шортанды" }, "geometry": { "type": "Point", "coordinates": [ 70.9871618, 51.697429 ] } },
{ "type": "Feature", "properties": { "osm_id": "765064981", "code": 1003, "fclass": "village", "population": 5009, "name": "Ақсу-Аюлы" }, "geometry": { "type": "Point", "coordinates": [ 73.6740332, 48.7655707 ] } },
{ "type": "Feature", "properties": { "osm_id": "820700690", "code": 1003, "fclass": "village", "population": 13704, "name": "Ақмол" }, "geometry": { "type": "Point", "coordinates": [ 70.9811874, 51.0714722 ] } },
{ "type": "Feature", "properties": { "osm_id": "896986848", "code": 1003, "fclass": "village", "population": 8683, "name": "Мойынқұм" }, "geometry": { "type": "Point", "coordinates": [ 72.94297, 44.28545 ] } },
{ "type": "Feature", "properties": { "osm_id": "914021120", "code": 1002, "fclass": "town", "population": 9928, "name": "Қашар" }, "geometry": { "type": "Point", "coordinates": [ 62.869267, 53.369434 ] } },
{ "type": "Feature", "properties": { "osm_id": "986043692", "code": 1003, "fclass": "village", "population": 6265, "name": "Долинка" }, "geometry": { "type": "Point", "coordinates": [ 72.6783469, 49.6783731 ] } },
{ "type": "Feature", "properties": { "osm_id": "1238308608", "code": 1002, "fclass": "town", "population": 6139, "name": "Молодёжный" }, "geometry": { "type": "Point", "coordinates": [ 73.531303, 50.722263 ] } },
{ "type": "Feature", "properties": { "osm_id": "1282416486", "code": 1001, "fclass": "city", "population": 84199, "name": "Қаскелең" }, "geometry": { "type": "Point", "coordinates": [ 76.6303854, 43.1976867 ] } },
{ "type": "Feature", "properties": { "osm_id": "1297024443", "code": 1003, "fclass": "village", "population": 34532, "name": "Ақсукент" }, "geometry": { "type": "Point", "coordinates": [ 69.8252591, 42.4234022 ] } },
{ "type": "Feature", "properties": { "osm_id": "1298132253", "code": 1001, "fclass": "city", "population": 6944, "name": "Мамлют" }, "geometry": { "type": "Point", "coordinates": [ 68.545174, 54.934776 ] } },
{ "type": "Feature", "properties": { "osm_id": "1338974760", "code": 1002, "fclass": "town", "population": 9600, "name": "Құсмұрын" }, "geometry": { "type": "Point", "coordinates": [ 64.615204, 52.451801 ] } },
{ "type": "Feature", "properties": { "osm_id": "1350467987", "code": 1002, "fclass": "town", "population": 6922, "name": "Фёдоровка" }, "geometry": { "type": "Point", "coordinates": [ 62.699245, 53.636597 ] } },
{ "type": "Feature", "properties": { "osm_id": "1456004422", "code": 1002, "fclass": "town", "population": 10760, "name": "Мәртөк" }, "geometry": { "type": "Point", "coordinates": [ 56.4995791, 50.7443222 ] } },
{ "type": "Feature", "properties": { "osm_id": "1457457600", "code": 1001, "fclass": "city", "population": 222703, "name": "Петропавл" }, "geometry": { "type": "Point", "coordinates": [ 69.1334984, 54.8668104 ] } },
{ "type": "Feature", "properties": { "osm_id": "1466716533", "code": 1001, "fclass": "city", "population": 1222055, "name": "Шымкент" }, "geometry": { "type": "Point", "coordinates": [ 69.5883282, 42.3146962 ] } },
{ "type": "Feature", "properties": { "osm_id": "1467100075", "code": 1001, "fclass": "city", "population": 8550, "name": "Булаев" }, "geometry": { "type": "Point", "coordinates": [ 70.447189, 54.896652 ] } },
{ "type": "Feature", "properties": { "osm_id": "1480819615", "code": 1003, "fclass": "village", "population": 6202, "name": "Пресновка" }, "geometry": { "type": "Point", "coordinates": [ 67.1452217, 54.6686113 ] } },
{ "type": "Feature", "properties": { "osm_id": "1492994952", "code": 1003, "fclass": "village", "population": 24101, "name": "Абай" }, "geometry": { "type": "Point", "coordinates": [ 68.9522597, 41.3494551 ] } },
{ "type": "Feature", "properties": { "osm_id": "1496101990", "code": 1003, "fclass": "village", "population": 5895, "name": "Ынтымақ" }, "geometry": { "type": "Point", "coordinates": [ 69.117866, 41.400131 ] } },
{ "type": "Feature", "properties": { "osm_id": "1496102346", "code": 1002, "fclass": "town", "population": 19704, "name": "Шолаққорған" }, "geometry": { "type": "Point", "coordinates": [ 69.17688, 43.766701 ] } },
{ "type": "Feature", "properties": { "osm_id": "1515019354", "code": 1002, "fclass": "town", "population": 10503, "name": "Шәуілдір" }, "geometry": { "type": "Point", "coordinates": [ 68.3709214, 42.7869666 ] } },
{ "type": "Feature", "properties": { "osm_id": "1548401519", "code": 1003, "fclass": "village", "population": 10872, "name": "Луговой" }, "geometry": { "type": "Point", "coordinates": [ 72.7543632, 42.9423113 ] } },
{ "type": "Feature", "properties": { "osm_id": "1548401521", "code": 1003, "fclass": "village", "population": 32964, "name": "Сарыкемер" }, "geometry": { "type": "Point", "coordinates": [ 71.512039, 43.000439 ] } },
{ "type": "Feature", "properties": { "osm_id": "1630461085", "code": 1002, "fclass": "town", "population": 8908, "name": "Боровской" }, "geometry": { "type": "Point", "coordinates": [ 64.1758398, 53.8058865 ] } },
{ "type": "Feature", "properties": { "osm_id": "1630461155", "code": 1002, "fclass": "town", "population": 28586, "name": "Тобыл" }, "geometry": { "type": "Point", "coordinates": [ 63.70311, 53.207062 ] } },
{ "type": "Feature", "properties": { "osm_id": "1642224535", "code": 1001, "fclass": "city", "population": 8000, "name": "Тобыл" }, "geometry": { "type": "Point", "coordinates": [ 62.594765, 52.693645 ] } },
{ "type": "Feature", "properties": { "osm_id": "1659158018", "code": 1002, "fclass": "town", "population": 5089, "name": "Ұзынкөл" }, "geometry": { "type": "Point", "coordinates": [ 65.3378245, 54.0375788 ] } },
{ "type": "Feature", "properties": { "osm_id": "1755780049", "code": 1003, "fclass": "village", "population": 5045, "name": "Қаракемер" }, "geometry": { "type": "Point", "coordinates": [ 77.622612, 43.423302 ] } },
{ "type": "Feature", "properties": { "osm_id": "1760005830", "code": 1003, "fclass": "village", "population": 10246, "name": "Шаян" }, "geometry": { "type": "Point", "coordinates": [ 69.380745, 43.032307 ] } },
{ "type": "Feature", "properties": { "osm_id": "1773385530", "code": 1003, "fclass": "village", "population": 7614, "name": "Ынтымақ" }, "geometry": { "type": "Point", "coordinates": [ 68.3025567, 40.7645467 ] } },
{ "type": "Feature", "properties": { "osm_id": "1799615339", "code": 1002, "fclass": "town", "population": 7909, "name": "Аршалы" }, "geometry": { "type": "Point", "coordinates": [ 72.1811626, 50.8304142 ] } },
{ "type": "Feature", "properties": { "osm_id": "1800382146", "code": 1003, "fclass": "village", "population": 9875, "name": "Красный Яр" }, "geometry": { "type": "Point", "coordinates": [ 69.2643176, 53.3265651 ] } },
{ "type": "Feature", "properties": { "osm_id": "1801622013", "code": 1002, "fclass": "town", "population": 5967, "name": "Бадамша" }, "geometry": { "type": "Point", "coordinates": [ 58.283154, 50.562958 ] } },
{ "type": "Feature", "properties": { "osm_id": "1801694073", "code": 1002, "fclass": "town", "population": 6579, "name": "Ойыл" }, "geometry": { "type": "Point", "coordinates": [ 54.662738, 49.0724892 ] } },
{ "type": "Feature", "properties": { "osm_id": "1826309062", "code": 1003, "fclass": "village", "population": 10439, "name": "Абай" }, "geometry": { "type": "Point", "coordinates": [ 76.761475, 43.211494 ] } },
{ "type": "Feature", "properties": { "osm_id": "1826309096", "code": 1003, "fclass": "village", "population": 14499, "name": "Асқар Тоқпанов ауылы" }, "geometry": { "type": "Point", "coordinates": [ 76.855621, 43.381348 ] } },
{ "type": "Feature", "properties": { "osm_id": "1826309098", "code": 1003, "fclass": "village", "population": 8526, "name": "Алғабас" }, "geometry": { "type": "Point", "coordinates": [ 76.799232, 43.254395 ] } },
{ "type": "Feature", "properties": { "osm_id": "1826309191", "code": 1003, "fclass": "village", "population": 7769, "name": "Көксай" }, "geometry": { "type": "Point", "coordinates": [ 76.7753721, 43.2586391 ] } },
{ "type": "Feature", "properties": { "osm_id": "1827535241", "code": 1003, "fclass": "village", "population": 6590, "name": "Кішкенекөл" }, "geometry": { "type": "Point", "coordinates": [ 72.3411085, 53.6357326 ] } },
{ "type": "Feature", "properties": { "osm_id": "1832841848", "code": 1001, "fclass": "city", "population": 256960, "name": "Орал" }, "geometry": { "type": "Point", "coordinates": [ 51.3707863, 51.2040697 ] } },
{ "type": "Feature", "properties": { "osm_id": "1832841860", "code": 1003, "fclass": "village", "population": 29945, "name": "Деркөл" }, "geometry": { "type": "Point", "coordinates": [ 51.292717, 51.256031 ] } },
{ "type": "Feature", "properties": { "osm_id": "1832841869", "code": 1003, "fclass": "village", "population": 9562, "name": "Подстёпное" }, "geometry": { "type": "Point", "coordinates": [ 51.49041, 51.152515 ] } },
{ "type": "Feature", "properties": { "osm_id": "1844646380", "code": 1002, "fclass": "town", "population": 6218, "name": "Бақанас" }, "geometry": { "type": "Point", "coordinates": [ 76.274628, 44.807812 ] } },
{ "type": "Feature", "properties": { "osm_id": "1905127946", "code": 1002, "fclass": "town", "population": 7292, "name": "Темірбек Жүргенов ауылы" }, "geometry": { "type": "Point", "coordinates": [ 60.4966174, 50.4309128 ] } },
{ "type": "Feature", "properties": { "osm_id": "1913828772", "code": 1003, "fclass": "village", "population": 13149, "name": "Бескөл" }, "geometry": { "type": "Point", "coordinates": [ 69.097794, 54.775146 ] } },
{ "type": "Feature", "properties": { "osm_id": "1914731530", "code": 1003, "fclass": "village", "population": 13528, "name": "Жетібай" }, "geometry": { "type": "Point", "coordinates": [ 52.1014626, 43.5883652 ] } },
{ "type": "Feature", "properties": { "osm_id": "1915016813", "code": 1003, "fclass": "village", "population": 7277, "name": "Боранқұл" }, "geometry": { "type": "Point", "coordinates": [ 54.470436, 46.206669 ] } },
{ "type": "Feature", "properties": { "osm_id": "1952574888", "code": 1002, "fclass": "town", "population": 25722, "name": "Тұрар Рысқұлов ауылы" }, "geometry": { "type": "Point", "coordinates": [ 70.3501763, 42.5344182 ] } },
{ "type": "Feature", "properties": { "osm_id": "1952946568", "code": 1003, "fclass": "village", "population": 19845, "name": "Төле би" }, "geometry": { "type": "Point", "coordinates": [ 73.762444, 43.681767 ] } },
{ "type": "Feature", "properties": { "osm_id": "1963146231", "code": 1003, "fclass": "village", "population": 9127, "name": "Белбұлақ" }, "geometry": { "type": "Point", "coordinates": [ 77.102219, 43.313999 ] } },
{ "type": "Feature", "properties": { "osm_id": "2010702330", "code": 1003, "fclass": "village", "population": 5858, "name": "Бақтыбай Жолбарысұлы ауылы" }, "geometry": { "type": "Point", "coordinates": [ 78.260361, 44.931416 ] } },
{ "type": "Feature", "properties": { "osm_id": "2021928369", "code": 1003, "fclass": "village", "population": 5650, "name": "Смирново" }, "geometry": { "type": "Point", "coordinates": [ 69.419189, 54.51453 ] } },
{ "type": "Feature", "properties": { "osm_id": "2028869783", "code": 1001, "fclass": "city", "population": 46744, "name": "Щучинск" }, "geometry": { "type": "Point", "coordinates": [ 70.1857634, 52.9387457 ] } },
{ "type": "Feature", "properties": { "osm_id": "2042648689", "code": 1002, "fclass": "town", "population": 7917, "name": "Жезкент" }, "geometry": { "type": "Point", "coordinates": [ 81.3957353, 50.9220353 ] } },
{ "type": "Feature", "properties": { "osm_id": "2042658769", "code": 1003, "fclass": "village", "population": 18517, "name": "Темірлан" }, "geometry": { "type": "Point", "coordinates": [ 69.2581088, 42.5999908 ] } },
{ "type": "Feature", "properties": { "osm_id": "2111854093", "code": 1002, "fclass": "town", "population": 27539, "name": "Қазығұрт" }, "geometry": { "type": "Point", "coordinates": [ 69.385651, 41.758801 ] } },
{ "type": "Feature", "properties": { "osm_id": "2168301156", "code": 1003, "fclass": "village", "population": 5577, "name": "Қараой" }, "geometry": { "type": "Point", "coordinates": [ 76.830063, 43.517513 ] } },
{ "type": "Feature", "properties": { "osm_id": "2206771884", "code": 1003, "fclass": "village", "population": 5928, "name": "Явленка" }, "geometry": { "type": "Point", "coordinates": [ 68.4566996, 54.3462508 ] } },
{ "type": "Feature", "properties": { "osm_id": "2264861871", "code": 1002, "fclass": "town", "population": 15725, "name": "Жалағаш" }, "geometry": { "type": "Point", "coordinates": [ 64.6809179, 45.0808963 ] } },
{ "type": "Feature", "properties": { "osm_id": "2271938585", "code": 1003, "fclass": "village", "population": 7238, "name": "Жәпек батыр ауылы" }, "geometry": { "type": "Point", "coordinates": [ 76.8945813, 43.4143123 ] } },
{ "type": "Feature", "properties": { "osm_id": "2378836174", "code": 1003, "fclass": "village", "population": 6966, "name": "Жаңа Қаратон" }, "geometry": { "type": "Point", "coordinates": [ 53.8741897, 46.9315613 ] } },
{ "type": "Feature", "properties": { "osm_id": "2388654611", "code": 1003, "fclass": "village", "population": 10000, "name": "Панфилово" }, "geometry": { "type": "Point", "coordinates": [ 77.1225103, 43.3866882 ] } },
{ "type": "Feature", "properties": { "osm_id": "2415025667", "code": 1003, "fclass": "village", "population": 6219, "name": "Мичуринское" }, "geometry": { "type": "Point", "coordinates": [ 51.383957, 51.264679 ] } },
{ "type": "Feature", "properties": { "osm_id": "2434826360", "code": 1002, "fclass": "town", "population": 13164, "name": "Аса" }, "geometry": { "type": "Point", "coordinates": [ 71.151062, 43.036049 ] } },
{ "type": "Feature", "properties": { "osm_id": "2513603196", "code": 1003, "fclass": "village", "population": 32699, "name": null }, "geometry": { "type": "Point", "coordinates": [ 77.017482, 43.4162574 ] } },
{ "type": "Feature", "properties": { "osm_id": "2513604949", "code": 1003, "fclass": "village", "population": 9649, "name": "Белоусовка" }, "geometry": { "type": "Point", "coordinates": [ 82.5190556, 50.1300262 ] } },
{ "type": "Feature", "properties": { "osm_id": "2528409769", "code": 1003, "fclass": "village", "population": 5493, "name": "Новодолинский" }, "geometry": { "type": "Point", "coordinates": [ 72.7119397, 49.7081074 ] } },
{ "type": "Feature", "properties": { "osm_id": "2555373788", "code": 1003, "fclass": "village", "population": 5815, "name": "Ақжар" }, "geometry": { "type": "Point", "coordinates": [ 51.9510333, 47.2130462 ] } },
{ "type": "Feature", "properties": { "osm_id": "2564683044", "code": 1003, "fclass": "village", "population": 8096, "name": "Тереңкөл" }, "geometry": { "type": "Point", "coordinates": [ 76.0992584, 53.0666191 ] } },
{ "type": "Feature", "properties": { "osm_id": "2567720890", "code": 1001, "fclass": "city", "population": 16017, "name": "Ақкөл" }, "geometry": { "type": "Point", "coordinates": [ 70.9560123, 51.9956724 ] } },
{ "type": "Feature", "properties": { "osm_id": "2582833139", "code": 1003, "fclass": "village", "population": 7532, "name": "Бурыл" }, "geometry": { "type": "Point", "coordinates": [ 71.4199466, 42.973241 ] } },
{ "type": "Feature", "properties": { "osm_id": "2583605005", "code": 1003, "fclass": "village", "population": 5599, "name": "Андас батыр" }, "geometry": { "type": "Point", "coordinates": [ 73.4998056, 42.8261237 ] } },
{ "type": "Feature", "properties": { "osm_id": "2583605011", "code": 1003, "fclass": "village", "population": 6861, "name": "Жамбыл" }, "geometry": { "type": "Point", "coordinates": [ 73.1585742, 42.867813 ] } },
{ "type": "Feature", "properties": { "osm_id": "2583605028", "code": 1003, "fclass": "village", "population": 11556, "name": "Сарымолдаев ауылы" }, "geometry": { "type": "Point", "coordinates": [ 73.2154254, 42.8690162 ] } },
{ "type": "Feature", "properties": { "osm_id": "2583605036", "code": 1003, "fclass": "village", "population": 6575, "name": "Меркі стансасы" }, "geometry": { "type": "Point", "coordinates": [ 73.2271692, 42.8808218 ] } },
{ "type": "Feature", "properties": { "osm_id": "2583913980", "code": 1003, "fclass": "village", "population": 6537, "name": "Гвардейский" }, "geometry": { "type": "Point", "coordinates": [ 75.218475, 43.579205 ] } },
{ "type": "Feature", "properties": { "osm_id": "2598879179", "code": 1002, "fclass": "town", "population": 5782, "name": "Бестөбе" }, "geometry": { "type": "Point", "coordinates": [ 73.0969462, 52.4980326 ] } },
{ "type": "Feature", "properties": { "osm_id": "2623402075", "code": 1001, "fclass": "city", "population": 18422, "name": "Зайсан" }, "geometry": { "type": "Point", "coordinates": [ 84.8718159, 47.4672312 ] } },
{ "type": "Feature", "properties": { "osm_id": "2712315210", "code": 1003, "fclass": "village", "population": 6187, "name": "Круглоозёрное" }, "geometry": { "type": "Point", "coordinates": [ 51.2822337, 51.0782686 ] } },
{ "type": "Feature", "properties": { "osm_id": "2715135627", "code": 1003, "fclass": "village", "population": 5701, "name": "Дарьинское" }, "geometry": { "type": "Point", "coordinates": [ 51.7507346, 51.3564389 ] } },
{ "type": "Feature", "properties": { "osm_id": "2760429033", "code": 1002, "fclass": "town", "population": 5739, "name": "Солнечный" }, "geometry": { "type": "Point", "coordinates": [ 75.461388, 52.03487 ] } },
{ "type": "Feature", "properties": { "osm_id": "2814784679", "code": 1003, "fclass": "village", "population": 8265, "name": null }, "geometry": { "type": "Point", "coordinates": [ 77.186073, 43.303921 ] } },
{ "type": "Feature", "properties": { "osm_id": "2814825013", "code": 1003, "fclass": "village", "population": 16453, "name": "Тұздыбастау" }, "geometry": { "type": "Point", "coordinates": [ 77.0612478, 43.3155221 ] } },
{ "type": "Feature", "properties": { "osm_id": "2920188020", "code": 1003, "fclass": "village", "population": 5865, "name": "Қызылтал" }, "geometry": { "type": "Point", "coordinates": [ 53.06699, 51.132874 ] } },
{ "type": "Feature", "properties": { "osm_id": "3069778014", "code": 1002, "fclass": "town", "population": 9224, "name": "Майқайың" }, "geometry": { "type": "Point", "coordinates": [ 75.8041945, 51.4632847 ] } },
{ "type": "Feature", "properties": { "osm_id": "3110028540", "code": 1003, "fclass": "village", "population": 15124, "name": "Байсерке" }, "geometry": { "type": "Point", "coordinates": [ 77.04187, 43.480175 ] } },
{ "type": "Feature", "properties": { "osm_id": "3234575968", "code": 1003, "fclass": "village", "population": 5181, "name": "Кабанбай батыра" }, "geometry": { "type": "Point", "coordinates": [ 71.354568, 50.852684 ] } },
{ "type": "Feature", "properties": { "osm_id": "3359267955", "code": 1003, "fclass": "village", "population": 11639, "name": "Саумалкөл" }, "geometry": { "type": "Point", "coordinates": [ 68.1060457, 53.2940231 ] } },
{ "type": "Feature", "properties": { "osm_id": "3503252650", "code": 1003, "fclass": "village", "population": 5979, "name": null }, "geometry": { "type": "Point", "coordinates": [ 78.169502, 43.540955 ] } },
{ "type": "Feature", "properties": { "osm_id": "3539201216", "code": 1003, "fclass": "village", "population": 6735, "name": "Өрікті" }, "geometry": { "type": "Point", "coordinates": [ 77.399612, 43.366608 ] } },
{ "type": "Feature", "properties": { "osm_id": "3615728204", "code": 1002, "fclass": "town", "population": 11647, "name": "Тереңөзек" }, "geometry": { "type": "Point", "coordinates": [ 64.9843937, 45.047338 ] } },
{ "type": "Feature", "properties": { "osm_id": "3653299328", "code": 1003, "fclass": "village", "population": 29801, "name": "Тасбөгет" }, "geometry": { "type": "Point", "coordinates": [ 65.55484, 44.769459 ] } },
{ "type": "Feature", "properties": { "osm_id": "3653353377", "code": 1003, "fclass": "village", "population": 9548, "name": "Торетам" }, "geometry": { "type": "Point", "coordinates": [ 63.315601, 45.650665 ] } },
{ "type": "Feature", "properties": { "osm_id": "3711772057", "code": 1003, "fclass": "village", "population": 5771, "name": "Ақжар" }, "geometry": { "type": "Point", "coordinates": [ 83.689468, 47.582851 ] } },
{ "type": "Feature", "properties": { "osm_id": "3712387567", "code": 1003, "fclass": "village", "population": 5698, "name": "Үлкеншыған" }, "geometry": { "type": "Point", "coordinates": [ 80.087158, 44.170177 ] } },
{ "type": "Feature", "properties": { "osm_id": "3714027779", "code": 1003, "fclass": "village", "population": 31534, "name": "Басқұдық" }, "geometry": { "type": "Point", "coordinates": [ 51.20887, 43.687016 ] } },
{ "type": "Feature", "properties": { "osm_id": "3714027780", "code": 1002, "fclass": "town", "population": 35604, "name": "Маңғыстау" }, "geometry": { "type": "Point", "coordinates": [ 51.304714, 43.692318 ] } },
{ "type": "Feature", "properties": { "osm_id": "3716670728", "code": 1003, "fclass": "village", "population": 5771, "name": "Усть-Таловка" }, "geometry": { "type": "Point", "coordinates": [ 81.8500631, 50.5481989 ] } },
{ "type": "Feature", "properties": { "osm_id": "3716812558", "code": 1003, "fclass": "village", "population": 15894, "name": "Теңге" }, "geometry": { "type": "Point", "coordinates": [ 52.852253, 43.312653 ] } },
{ "type": "Feature", "properties": { "osm_id": "3716813993", "code": 1003, "fclass": "village", "population": 5803, "name": "Қызылсай" }, "geometry": { "type": "Point", "coordinates": [ 53.038296, 43.448353 ] } },
{ "type": "Feature", "properties": { "osm_id": "3716837500", "code": 1003, "fclass": "village", "population": 35468, "name": "Рахат" }, "geometry": { "type": "Point", "coordinates": [ 52.902336, 43.328697 ] } },
{ "type": "Feature", "properties": { "osm_id": "3726640330", "code": 1002, "fclass": "town", "population": 27188, "name": "Боралдай" }, "geometry": { "type": "Point", "coordinates": [ 76.8590468, 43.3584693 ] } },
{ "type": "Feature", "properties": { "osm_id": "3764326166", "code": 1001, "fclass": "city", "population": 55160, "name": "Қосшы" }, "geometry": { "type": "Point", "coordinates": [ 71.354946, 50.9754092 ] } },
{ "type": "Feature", "properties": { "osm_id": "3856065876", "code": 1001, "fclass": "city", "population": 6719, "name": "Шар" }, "geometry": { "type": "Point", "coordinates": [ 81.050629, 49.583221 ] } },
{ "type": "Feature", "properties": { "osm_id": "4023360635", "code": 1003, "fclass": "village", "population": 16621, "name": "Батыр" }, "geometry": { "type": "Point", "coordinates": [ 51.404417, 43.6292761 ] } },
{ "type": "Feature", "properties": { "osm_id": "4164640489", "code": 1003, "fclass": "village", "population": 12179, "name": "Ақшұқыр" }, "geometry": { "type": "Point", "coordinates": [ 51.0605022, 43.7831766 ] } },
{ "type": "Feature", "properties": { "osm_id": "4164640491", "code": 1003, "fclass": "village", "population": 10135, "name": "Дәулет" }, "geometry": { "type": "Point", "coordinates": [ 51.3254021, 43.7022278 ] } },
{ "type": "Feature", "properties": { "osm_id": "4164640492", "code": 1003, "fclass": "village", "population": 25188, "name": "Қызылтөбе" }, "geometry": { "type": "Point", "coordinates": [ 51.3429252, 43.6810699 ] } },
{ "type": "Feature", "properties": { "osm_id": "4165966933", "code": 1003, "fclass": "village", "population": 29294, "name": "Атамекен" }, "geometry": { "type": "Point", "coordinates": [ 51.2069058, 43.6635046 ] } },
{ "type": "Feature", "properties": { "osm_id": "4697190350", "code": 1010, "fclass": "suburb", "population": 16093, "name": "Қарғалы" }, "geometry": { "type": "Point", "coordinates": [ 57.3092276, 50.3144217 ] } },
{ "type": "Feature", "properties": { "osm_id": "4713331912", "code": 1001, "fclass": "city", "population": 20600, "name": "霍尔果斯市 قورعاس" }, "geometry": { "type": "Point", "coordinates": [ 80.41214, 44.2165221 ] } },
{ "type": "Feature", "properties": { "osm_id": "4771298073", "code": 1010, "fclass": "suburb", "population": 8000, "name": null }, "geometry": { "type": "Point", "coordinates": [ 77.002553, 43.2514753 ] } },
{ "type": "Feature", "properties": { "osm_id": "4919031783", "code": 1003, "fclass": "village", "population": 10679, "name": "Глубокое" }, "geometry": { "type": "Point", "coordinates": [ 82.3169517, 50.1438305 ] } },
{ "type": "Feature", "properties": { "osm_id": "5011408337", "code": 1001, "fclass": "city", "population": 42010, "name": "Аягөз" }, "geometry": { "type": "Point", "coordinates": [ 80.4365994, 47.9651211 ] } },
{ "type": "Feature", "properties": { "osm_id": "5217886592", "code": 1003, "fclass": "village", "population": 9231, "name": "Ақтас" }, "geometry": { "type": "Point", "coordinates": [ 72.9637992, 49.778292 ] } },
{ "type": "Feature", "properties": { "osm_id": "5644287102", "code": 1002, "fclass": "town", "population": 14245, "name": "Асықата" }, "geometry": { "type": "Point", "coordinates": [ 68.3666754, 40.8964679 ] } },
{ "type": "Feature", "properties": { "osm_id": "5912292146", "code": 1003, "fclass": "village", "population": 7758, "name": "Баянды" }, "geometry": { "type": "Point", "coordinates": [ 51.3069892, 43.7651745 ] } },
{ "type": "Feature", "properties": { "osm_id": "5912323461", "code": 1003, "fclass": "village", "population": 8947, "name": "Сайын Шапағатов" }, "geometry": { "type": "Point", "coordinates": [ 51.0315478, 43.8385975 ] } },
{ "type": "Feature", "properties": { "osm_id": "5912358772", "code": 1003, "fclass": "village", "population": 5209, "name": "Мұнайшы" }, "geometry": { "type": "Point", "coordinates": [ 52.0879358, 43.4985033 ] } },
{ "type": "Feature", "properties": { "osm_id": "5924007387", "code": 1003, "fclass": "village", "population": 5307, "name": "Жаңаталап" }, "geometry": { "type": "Point", "coordinates": [ 51.811561, 46.9939386 ] } },
{ "type": "Feature", "properties": { "osm_id": "5924013015", "code": 1003, "fclass": "village", "population": 10939, "name": "Еркінқала" }, "geometry": { "type": "Point", "coordinates": [ 51.8028116, 47.0257106 ] } },
{ "type": "Feature", "properties": { "osm_id": "5924026791", "code": 1003, "fclass": "village", "population": 5610, "name": "Ракуша" }, "geometry": { "type": "Point", "coordinates": [ 51.8378186, 47.0571707 ] } },
{ "type": "Feature", "properties": { "osm_id": "5924052975", "code": 1003, "fclass": "village", "population": 9012, "name": "Тасқала" }, "geometry": { "type": "Point", "coordinates": [ 51.9074714, 47.0302741 ] } },
{ "type": "Feature", "properties": { "osm_id": "5924055118", "code": 1003, "fclass": "village", "population": 18879, "name": "Томарлы" }, "geometry": { "type": "Point", "coordinates": [ 51.9539595, 47.1634728 ] } },
{ "type": "Feature", "properties": { "osm_id": "5956715470", "code": 1003, "fclass": "village", "population": 5760, "name": "Қосбұлақ" }, "geometry": { "type": "Point", "coordinates": [ 69.7193155, 42.5675108 ] } },
{ "type": "Feature", "properties": { "osm_id": "9831636657", "code": 1003, "fclass": "village", "population": 6364, "name": "Хантағы" }, "geometry": { "type": "Point", "coordinates": [ 68.5861978, 43.5268585 ] } },
{ "type": "Feature", "properties": { "osm_id": "9942038066", "code": 1010, "fclass": "suburb", "population": 15857, "name": "АДК" }, "geometry": { "type": "Point", "coordinates": [ 76.8443874, 43.2620012 ] } },
{ "type": "Feature", "properties": { "osm_id": "9948834270", "code": 1010, "fclass": "suburb", "population": 25837, "name": "Қарасу" }, "geometry": { "type": "Point", "coordinates": [ 76.9005095, 43.3337085 ] } },
{ "type": "Feature", "properties": { "osm_id": "9968002088", "code": 1010, "fclass": "suburb", "population": 36483, "name": "Шаңырак" }, "geometry": { "type": "Point", "coordinates": [ 76.8565491, 43.2968603 ] } },
{ "type": "Feature", "properties": { "osm_id": "10861961053", "code": 1003, "fclass": "village", "population": 8541, "name": "Жібек жолы" }, "geometry": { "type": "Point", "coordinates": [ 77.0661576, 43.4140241 ] } },
{ "type": "Feature", "properties": { "osm_id": "11019835973", "code": 1002, "fclass": "town", "population": 14592, "name": "Құрманғазы" }, "geometry": { "type": "Point", "coordinates": [ 49.2701849, 46.6046814 ] } },
{ "type": "Feature", "properties": { "osm_id": "11190555065", "code": 1003, "fclass": "village", "population": 12868, "name": "Кендірлі" }, "geometry": { "type": "Point", "coordinates": [ 52.9045851, 43.3233898 ] } },
{ "type": "Feature", "properties": { "osm_id": "11524419696", "code": 1002, "fclass": "town", "population": 62631, "name": "Зашаған" }, "geometry": { "type": "Point", "coordinates": [ 51.3057044, 51.1809779 ] } },
{ "type": "Feature", "properties": { "osm_id": "11781135116", "code": 1003, "fclass": "village", "population": 16632, "name": "Бесағаш" }, "geometry": { "type": "Point", "coordinates": [ 77.0407465, 43.299033 ] } },
{ "type": "Feature", "properties": { "osm_id": "11781280477", "code": 1003, "fclass": "village", "population": 9041, "name": "Гүльдала" }, "geometry": { "type": "Point", "coordinates": [ 77.0569607, 43.3489398 ] } },
{ "type": "Feature", "properties": { "osm_id": "12121209903", "code": 1003, "fclass": "village", "population": 9753, "name": "Ақсай" }, "geometry": { "type": "Point", "coordinates": [ 76.7241275, 43.4573582 ] } },
{ "type": "Feature", "properties": { "osm_id": "12121209905", "code": 1003, "fclass": "village", "population": 5113, "name": "Кенен Әзірбаев ауылы" }, "geometry": { "type": "Point", "coordinates": [ 77.0097184, 43.4048682 ] } },
{ "type": "Feature", "properties": { "osm_id": "12281786069", "code": 1003, "fclass": "village", "population": 5089, "name": "Қызылжар" }, "geometry": { "type": "Point", "coordinates": [ 69.2725534, 41.5136968 ] } },
{ "type": "Feature", "properties": { "osm_id": "12836700730", "code": 1003, "fclass": "village", "population": 16450, "name": "Іргелі" }, "geometry": { "type": "Point", "coordinates": [ 76.7597927, 43.2383867 ] } }
]
}
